zip,lat,lng,city,state_id,state_name,zcta,parent_zcta,population,density,county_fips,county_name,county_weights,county_names_all,county_fips_all,imprecise,military,timezone
38601,34.48146,-89.45166,Abbeville,MS,Mississippi,True,,1857.0,8.2,28071,Lafayette,"{""28071"": 100}",Lafayette,28071,False,False,America/Chicago
38603,34.83949,-89.14163,Ashland,MS,Mississippi,True,,2715.0,7.7,28009,Benton,"{""28009"": 96.0, ""28139"": 4.0}",Benton|Tippah,28009|28139,False,False,America/Chicago
38606,34.30375,-89.9581,Batesville,MS,Mississippi,True,,15538.0,23.9,28107,Panola,"{""28107"": 95.82, ""28119"": 2.75, ""28071"": 1.43}",Panola|Quitman|Lafayette,28107|28119|28071,False,False,America/Chicago
38610,34.65357,-89.02637,Blue Mountain,MS,Mississippi,True,,3324.0,13.5,28139,Tippah,"{""28139"": 72.62, ""28009"": 15.58, ""28145"": 11.8}",Tippah|Benton|Union,28139|28009|28145,False,False,America/Chicago
38611,34.85467,-89.67116,Byhalia,MS,Mississippi,True,,16885.0,34.0,28093,Marshall,"{""28093"": 81.3, ""28033"": 18.7}",Marshall|DeSoto,28093|28033,False,False,America/Chicago
38614,34.15914,-90.60747,Clarksdale,MS,Mississippi,True,,17353.0,27.6,28027,Coahoma,"{""28027"": 96.94, ""28011"": 3.06}",Coahoma|Bolivar,28027|28011,False,False,America/Chicago
38617,34.36261,-90.49342,Coahoma,MS,Mississippi,True,,495.0,2.2,28027,Coahoma,"{""28027"": 99.14, ""28119"": 0.86}",Coahoma|Quitman,28027|28119,False,False,America/Chicago
38618,34.70203,-89.93415,Coldwater,MS,Mississippi,True,,11091.0,21.6,28137,Tate,"{""28137"": 97.0, ""28033"": 2.3, ""28093"": 0.7}",Tate|DeSoto|Marshall,28137|28033|28093,False,False,America/Chicago
38619,34.51288,-89.82678,Como,MS,Mississippi,True,,4721.0,12.8,28107,Panola,"{""28107"": 70.11, ""28071"": 25.1, ""28137"": 4.79}",Panola|Lafayette|Tate,28107|28071|28137,False,False,America/Chicago
38620,34.23206,-89.9156,Courtland,MS,Mississippi,True,,3416.0,22.4,28107,Panola,"{""28107"": 100}",Panola,28107,False,False,America/Chicago
38621,34.4528,-90.1731,Crenshaw,MS,Mississippi,True,,2107.0,13.2,28107,Panola,"{""28107"": 79.99, ""28119"": 20.01}",Panola|Quitman,28107|28119,False,False,America/Chicago
38622,34.16944,-90.13448,Crowder,MS,Mississippi,True,,810.0,348.1,28107,Panola,"{""28107"": 59.59, ""28119"": 40.21, ""28135"": 0.2}",Panola|Quitman|Tallahatchie,28107|28119|28135,False,False,America/Chicago
38623,34.36131,-90.29692,Darling,MS,Mississippi,True,,224.0,12.8,28119,Quitman,"{""28119"": 100}",Quitman,28119,False,False,America/Chicago
38625,34.61866,-88.8334,Dumas,MS,Mississippi,True,,1617.0,18.7,28139,Tippah,"{""28139"": 68.52, ""28145"": 31.48}",Tippah|Union,28139|28145,False,False,America/Chicago
38626,34.5182,-90.43966,Dundee,MS,Mississippi,True,,906.0,2.1,28143,Tunica,"{""28143"": 81.72, ""28027"": 18.28}",Tunica|Coahoma,28143|28027,False,False,America/Chicago
38627,34.44503,-89.24563,Etta,MS,Mississippi,True,,1600.0,9.8,28071,Lafayette,"{""28071"": 52.42, ""28145"": 47.58}",Lafayette|Union,28071|28145,False,False,America/Chicago
38629,34.86914,-88.99421,Falkner,MS,Mississippi,True,,1752.0,15.7,28139,Tippah,"{""28139"": 71.35, ""28009"": 28.65}",Tippah|Benton,28139|28009,False,False,America/Chicago
38631,34.35891,-90.62765,Friars Point,MS,Mississippi,True,,1415.0,174.2,28027,Coahoma,"{""28027"": 100}",Coahoma,28027,False,False,America/Chicago
38632,34.79973,-90.00629,Hernando,MS,Mississippi,True,,27467.0,65.4,28033,DeSoto,"{""28033"": 100}",DeSoto,28033,False,False,America/Chicago
38633,34.64206,-89.19671,Hickory Flat,MS,Mississippi,True,,2649.0,10.2,28009,Benton,"{""28009"": 79.99, ""28145"": 20.01}",Benton|Union,28009|28145,False,False,America/Chicago
38635,34.7677,-89.47896,Holly Springs,MS,Mississippi,True,,16173.0,18.2,28093,Marshall,"{""28093"": 91.43, ""28009"": 6.1, ""28137"": 2.47}",Marshall|Benton|Tate,28093|28009|28137,False,False,America/Chicago
38637,34.95105,-90.05004,Horn Lake,MS,Mississippi,True,,27290.0,665.0,28033,DeSoto,"{""28033"": 100}",DeSoto,28033,False,False,America/Chicago
38639,34.30909,-90.4285,Jonestown,MS,Mississippi,True,,957.0,81.9,28027,Coahoma,"{""28027"": 100}",Coahoma,28027,False,False,America/Chicago
38641,34.90616,-90.1857,Lake Cormorant,MS,Mississippi,True,,2203.0,11.1,28033,DeSoto,"{""28033"": 100}",DeSoto,28033,False,False,America/Chicago
38642,34.91861,-89.33901,Lamar,MS,Mississippi,True,,2626.0,13.5,28009,Benton,"{""28009"": 55.13, ""28093"": 44.87}",Benton|Marshall,28009|28093,False,False,America/Chicago
38643,34.15082,-90.26281,Lambert,MS,Mississippi,True,,1596.0,4.0,28119,Quitman,"{""28119"": 96.71, ""28135"": 3.29}",Quitman|Tallahatchie,28119|28135,False,False,America/Chicago
38644,34.45899,-90.47576,Lula,MS,Mississippi,True,,218.0,216.0,28027,Coahoma,"{""28027"": 100}",Coahoma,28027,False,False,America/Chicago
38645,34.2469,-90.47663,Lyon,MS,Mississippi,True,,1446.0,8.9,28027,Coahoma,"{""28027"": 82.62, ""28119"": 17.38}",Coahoma|Quitman,28027|28119,False,False,America/Chicago
38646,34.28141,-90.29673,Marks,MS,Mississippi,True,,2959.0,10.2,28119,Quitman,"{""28119"": 100}",Quitman,28119,False,False,America/Chicago
38647,34.95851,-89.21746,Michigan City,MS,Mississippi,True,,560.0,3.2,28009,Benton,"{""28009"": 100}",Benton,28009,False,False,America/Chicago
38650,34.52776,-89.14165,Myrtle,MS,Mississippi,True,,4332.0,21.2,28145,Union,"{""28145"": 91.8, ""28009"": 8.2}",Union|Benton,28145|28009,False,False,America/Chicago
38651,34.89172,-90.00359,Nesbit,MS,Mississippi,True,,8751.0,102.6,28033,DeSoto,"{""28033"": 100}",DeSoto,28033,False,False,America/Chicago
38652,34.48545,-88.99652,New Albany,MS,Mississippi,True,,16088.0,40.2,28145,Union,"{""28145"": 100}",Union,28145,False,False,America/Chicago
38654,34.93635,-89.82409,Olive Branch,MS,Mississippi,True,,53995.0,227.1,28033,DeSoto,"{""28033"": 96.64, ""28093"": 3.36}",DeSoto|Marshall,28033|28093,False,False,America/Chicago
38655,34.33114,-89.4825,Oxford,MS,Mississippi,True,,44339.0,47.3,28071,Lafayette,"{""28071"": 100}",Lafayette,28071,False,False,America/Chicago
38658,34.19011,-89.89906,Pope,MS,Mississippi,True,,2724.0,24.5,28107,Panola,"{""28107"": 94.55, ""28161"": 5.45}",Panola|Yalobusha,28107|28161,False,False,America/Chicago
38659,34.62073,-89.32065,Potts Camp,MS,Mississippi,True,,2895.0,10.1,28093,Marshall,"{""28093"": 80.28, ""28009"": 19.72}",Marshall|Benton,28093|28009,False,False,America/Chicago
38661,34.89009,-89.55918,Red Banks,MS,Mississippi,True,,1740.0,22.2,28093,Marshall,"{""28093"": 100}",Marshall,28093,False,False,America/Chicago
38663,34.74111,-88.89718,Ripley,MS,Mississippi,True,,12287.0,25.1,28139,Tippah,"{""28139"": 99.18, ""28009"": 0.82}",Tippah|Benton,28139|28009,False,False,America/Chicago
38664,34.80434,-90.33217,Robinsonville,MS,Mississippi,True,,3221.0,12.5,28143,Tunica,"{""28143"": 100}",Tunica,28143,False,False,America/Chicago
38665,34.58165,-90.16693,Sarah,MS,Mississippi,True,,2998.0,17.7,28137,Tate,"{""28137"": 61.63, ""28107"": 26.79, ""28143"": 11.58}",Tate|Panola|Tunica,28137|28107|28143,False,False,America/Chicago
38666,34.42007,-89.92708,Sardis,MS,Mississippi,True,,6553.0,17.8,28107,Panola,"{""28107"": 100}",Panola,28107,False,False,America/Chicago
38668,34.60109,-89.92505,Senatobia,MS,Mississippi,True,,14383.0,34.6,28137,Tate,"{""28137"": 97.16, ""28107"": 2.84}",Tate|Panola,28137|28107,False,False,America/Chicago
38670,34.42815,-90.28899,Sledge,MS,Mississippi,True,,860.0,3.3,28119,Quitman,"{""28119"": 74.9, ""28143"": 25.1}",Quitman|Tunica,28119|28143,False,False,America/Chicago
38671,34.96376,-89.99567,Southaven,MS,Mississippi,True,,37798.0,656.7,28033,DeSoto,"{""28033"": 100}",DeSoto,28033,False,False,America/Chicago
38672,34.93727,-89.94943,Southaven,MS,Mississippi,True,,15535.0,460.7,28033,DeSoto,"{""28033"": 100}",DeSoto,28033,False,False,America/Chicago
38673,34.29607,-89.62485,Taylor,MS,Mississippi,True,,1234.0,16.4,28071,Lafayette,"{""28071"": 100}",Lafayette,28071,False,False,America/Chicago
38674,34.8718,-88.89549,Tiplersville,MS,Mississippi,True,,1070.0,10.0,28139,Tippah,"{""28139"": 100}",Tippah,28139,False,False,America/Chicago
38676,34.67274,-90.3682,Tunica,MS,Mississippi,True,,5882.0,13.4,28143,Tunica,"{""28143"": 100}",Tunica,28143,False,False,America/Chicago
38677,34.36402,-89.53859,University,MS,Mississippi,True,,3799.0,1238.9,28071,Lafayette,"{""28071"": 100}",Lafayette,28071,False,False,America/Chicago
38680,34.96152,-90.14463,Walls,MS,Mississippi,True,,6130.0,97.7,28033,DeSoto,"{""28033"": 100}",DeSoto,28033,False,False,America/Chicago
38683,34.93504,-88.85997,Walnut,MS,Mississippi,True,,4472.0,12.9,28139,Tippah,"{""28139"": 54.72, ""28003"": 38.37, ""28009"": 6.91}",Tippah|Alcorn|Benton,28139|28003|28009,False,False,America/Chicago
38685,34.5953,-89.48827,Waterford,MS,Mississippi,True,,1106.0,5.1,28093,Marshall,"{""28093"": 94.18, ""28071"": 5.82}",Marshall|Lafayette,28093|28071,False,False,America/Chicago
38701,33.30621,-91.03346,Greenville,MS,Mississippi,True,,22296.0,96.3,28151,Washington,"{""28151"": 100}",Washington,28151,False,False,America/Chicago
38703,33.47081,-91.04775,Greenville,MS,Mississippi,True,,11673.0,31.8,28151,Washington,"{""28151"": 86.73, ""28011"": 13.27}",Washington|Bolivar,28151|28011,False,False,America/Chicago
38720,34.11907,-90.78741,Alligator,MS,Mississippi,True,,732.0,4.8,28027,Coahoma,"{""28027"": 55.14, ""28011"": 44.86}",Coahoma|Bolivar,28027|28011,False,False,America/Chicago
38721,32.96598,-90.75876,Anguilla,MS,Mississippi,True,,891.0,2.7,28125,Sharkey,"{""28125"": 100}",Sharkey,28125,False,False,America/Chicago
38722,33.26116,-90.88304,Arcola,MS,Mississippi,True,,355.0,27.8,28151,Washington,"{""28151"": 100}",Washington,28151,False,False,America/Chicago
38723,33.22967,-91.03845,Avon,MS,Mississippi,True,,52.0,38.7,28151,Washington,"{""28151"": 100}",Washington,28151,False,False,America/Chicago
38725,33.63834,-91.05543,Benoit,MS,Mississippi,True,,1033.0,2.7,28011,Bolivar,"{""28011"": 100}",Bolivar,28011,False,False,America/Chicago
38726,33.75207,-90.97664,Beulah,MS,Mississippi,True,,457.0,3.2,28011,Bolivar,"{""28011"": 100}",Bolivar,28011,False,False,America/Chicago
38730,33.6883,-90.79932,Boyle,MS,Mississippi,True,,1968.0,12.4,28011,Bolivar,"{""28011"": 100}",Bolivar,28011,False,False,America/Chicago
38731,33.11524,-91.13829,Chatham,MS,Mississippi,True,,,,28151,Washington,"{""28151"": 100}",Washington,28151,False,False,America/Chicago
38732,33.75556,-90.72558,Cleveland,MS,Mississippi,True,,16418.0,71.8,28011,Bolivar,"{""28011"": 76.84, ""28133"": 23.16}",Bolivar|Sunflower,28011|28133,False,False,America/Chicago
38733,33.74463,-90.73504,Cleveland,MS,Mississippi,True,,,,28011,Bolivar,"{""28011"": 100}",Bolivar,28011,False,False,America/Chicago
38736,33.64389,-90.54173,Doddsville,MS,Mississippi,True,,399.0,2.2,28133,Sunflower,"{""28133"": 93.98, ""28083"": 6.02}",Sunflower|Leflore,28133|28083,False,False,America/Chicago
38737,33.85683,-90.4928,Drew,MS,Mississippi,True,,3064.0,10.2,28133,Sunflower,"{""28133"": 69.45, ""28135"": 30.55}",Sunflower|Tallahatchie,28133|28135,False,False,America/Chicago
38738,33.93049,-90.53653,Parchman,MS,Mississippi,True,,3765.0,77.4,28133,Sunflower,"{""28133"": 100}",Sunflower,28133,False,False,America/Chicago
38740,34.04825,-90.79039,Duncan,MS,Mississippi,True,,262.0,1.5,28011,Bolivar,"{""28011"": 99.63, ""28027"": 0.37}",Bolivar|Coahoma,28011|28027,False,False,America/Chicago
38744,33.03066,-91.05371,Glen Allan,MS,Mississippi,True,,435.0,2.4,28151,Washington,"{""28151"": 70.97, ""28055"": 29.03}",Washington|Issaquena,28151|28055,False,False,America/Chicago
38745,32.98592,-91.00499,Grace,MS,Mississippi,True,,162.0,6.0,28055,Issaquena,"{""28055"": 100}",Issaquena,28055,False,False,America/Chicago
38746,33.95677,-90.94112,Gunnison,MS,Mississippi,True,,438.0,2.0,28011,Bolivar,"{""28011"": 100}",Bolivar,28011,False,False,America/Chicago
38748,33.15787,-90.87964,Hollandale,MS,Mississippi,True,,3071.0,4.5,28151,Washington,"{""28151"": 94.84, ""28125"": 5.16}",Washington|Sharkey,28151|28125,False,False,America/Chicago
38751,33.45326,-90.67469,Indianola,MS,Mississippi,True,,10203.0,24.2,28133,Sunflower,"{""28133"": 100}",Sunflower,28133,False,False,America/Chicago
38753,33.34845,-90.58583,Inverness,MS,Mississippi,True,,1157.0,6.0,28133,Sunflower,"{""28133"": 88.96, ""28053"": 11.04}",Sunflower|Humphreys,28133|28053,False,False,America/Chicago
38754,33.24816,-90.62066,Isola,MS,Mississippi,True,,1250.0,5.3,28053,Humphreys,"{""28053"": 72.97, ""28133"": 27.03}",Humphreys|Sunflower,28053|28133,False,False,America/Chicago
38756,33.39326,-90.85827,Leland,MS,Mississippi,True,,6226.0,12.4,28151,Washington,"{""28151"": 100}",Washington,28151,False,False,America/Chicago
38759,33.82495,-90.73501,Merigold,MS,Mississippi,True,,1271.0,7.6,28011,Bolivar,"{""28011"": 71.58, ""28133"": 28.42}",Bolivar|Sunflower,28011|28133,False,False,America/Chicago
38760,33.4535,-90.99394,Metcalfe,MS,Mississippi,True,,951.0,224.8,28151,Washington,"{""28151"": 100}",Washington,28151,False,False,America/Chicago
38761,33.42507,-90.47658,Moorhead,MS,Mississippi,True,,2286.0,16.0,28133,Sunflower,"{""28133"": 69.38, ""28083"": 30.62}",Sunflower|Leflore,28133|28083,False,False,America/Chicago
38762,33.8885,-90.72681,Mound Bayou,MS,Mississippi,True,,2337.0,13.7,28011,Bolivar,"{""28011"": 79.05, ""28133"": 20.95}",Bolivar|Sunflower,28011|28133,False,False,America/Chicago
38764,33.79878,-90.87965,Pace,MS,Mississippi,True,,297.0,34.8,28011,Bolivar,"{""28011"": 100}",Bolivar,28011,False,False,America/Chicago
38765,33.0493,-90.8896,Panther Burn,MS,Mississippi,True,,103.0,5.3,28125,Sharkey,"{""28125"": 100}",Sharkey,28125,False,False,America/Chicago
38767,34.12809,-90.80552,Rena Lara,MS,Mississippi,True,,,,28027,Coahoma,"{""28027"": 100}",Coahoma,28027,False,False,America/Chicago
38768,33.96576,-90.48036,Rome,MS,Mississippi,True,,47.0,5.4,28133,Sunflower,"{""28133"": 100}",Sunflower,28133,False,False,America/Chicago
38769,33.84255,-90.97678,Rosedale,MS,Mississippi,True,,1946.0,10.6,28011,Bolivar,"{""28011"": 91.6, ""05041"": 8.4}",Bolivar|Desha,28011|05041,False,False,America/Chicago
38771,33.73914,-90.5243,Ruleville,MS,Mississippi,True,,2980.0,21.2,28133,Sunflower,"{""28133"": 100}",Sunflower,28133,False,False,America/Chicago
38772,33.56254,-91.08769,Scott,MS,Mississippi,True,,19.0,0.4,28011,Bolivar,"{""28011"": 99.84, ""28151"": 0.16}",Bolivar|Washington,28011|28151,False,False,America/Chicago
38773,33.60455,-90.77388,Shaw,MS,Mississippi,True,,3269.0,9.8,28011,Bolivar,"{""28011"": 71.54, ""28133"": 28.46}",Bolivar|Sunflower,28011|28133,False,False,America/Chicago
38774,33.9659,-90.76695,Shelby,MS,Mississippi,True,,1804.0,11.1,28011,Bolivar,"{""28011"": 100}",Bolivar,28011,False,False,America/Chicago
38776,33.42466,-90.92752,Stoneville,MS,Mississippi,True,,,,28151,Washington,"{""28151"": 100}",Washington,28151,False,False,America/Chicago
38778,33.54564,-90.51832,Sunflower,MS,Mississippi,True,,1219.0,7.7,28133,Sunflower,"{""28133"": 100}",Sunflower,28133,False,False,America/Chicago
38781,33.90876,-90.75684,Winstonville,MS,Mississippi,True,,146.0,82.3,28011,Bolivar,"{""28011"": 100}",Bolivar,28011,False,False,America/Chicago
38801,34.22256,-88.7762,Tupelo,MS,Mississippi,True,,29889.0,158.1,28081,Lee,"{""28081"": 82.64, ""28115"": 17.36}",Lee|Pontotoc,28081|28115,False,False,America/Chicago
38804,34.28094,-88.67246,Tupelo,MS,Mississippi,True,,16602.0,81.7,28081,Lee,"{""28081"": 97.7, ""28057"": 2.3}",Lee|Itawamba,28081|28057,False,False,America/Chicago
38821,33.97503,-88.43918,Amory,MS,Mississippi,True,,12528.0,34.9,28095,Monroe,"{""28095"": 100}",Monroe,28095,False,False,America/Chicago
38824,34.52303,-88.64334,Baldwyn,MS,Mississippi,True,,7387.0,19.4,28117,Prentiss,"{""28117"": 47.4, ""28081"": 24.63, ""28145"": 14.2, ""28057"": 7.8, ""28139"": 5.96}",Prentiss|Lee|Union|Itawamba|Tippah,28117|28081|28145|28057|28139,False,False,America/Chicago
38826,34.30164,-88.84655,Belden,MS,Mississippi,True,,4698.0,59.1,28115,Pontotoc,"{""28115"": 71.77, ""28081"": 28.23}",Pontotoc|Lee,28115|28081,False,False,America/Chicago
38827,34.53,-88.20244,Belmont,MS,Mississippi,True,,3551.0,39.8,28141,Tishomingo,"{""28141"": 100}",Tishomingo,28141,False,False,America/Chicago
38828,34.42365,-88.86789,Blue Springs,MS,Mississippi,True,,4628.0,19.1,28145,Union,"{""28145"": 80.89, ""28115"": 15.09, ""28081"": 4.02}",Union|Pontotoc|Lee,28145|28115|28081,False,False,America/Chicago
38829,34.65229,-88.53639,Booneville,MS,Mississippi,True,,18644.0,28.0,28117,Prentiss,"{""28117"": 92.67, ""28139"": 7.33}",Prentiss|Tippah,28117|28139,False,False,America/Chicago
38833,34.82259,-88.34274,Burnsville,MS,Mississippi,True,,2297.0,17.7,28141,Tishomingo,"{""28141"": 77.28, ""28003"": 14.89, ""28117"": 7.83}",Tishomingo|Alcorn|Prentiss,28141|28003|28117,False,False,America/Chicago
38834,34.91627,-88.56027,Corinth,MS,Mississippi,True,,29190.0,50.5,28003,Alcorn,"{""28003"": 98.57, ""28141"": 1.43}",Alcorn|Tishomingo,28003|28141,False,False,America/Chicago
38838,34.5448,-88.2643,Dennis,MS,Mississippi,True,,1246.0,10.6,28141,Tishomingo,"{""28141"": 99.16, ""28117"": 0.84}",Tishomingo|Prentiss,28141|28117,False,False,America/Chicago
38839,33.8558,-89.28404,Derma,MS,Mississippi,True,,,,28013,Calhoun,"{""28013"": 100}",Calhoun,28013,False,False,America/Chicago
38841,34.34943,-89.02237,Ecru,MS,Mississippi,True,,3411.0,40.0,28115,Pontotoc,"{""28115"": 90.67, ""28145"": 9.33}",Pontotoc|Union,28115|28145,False,False,America/Chicago
38843,34.26753,-88.37437,Fulton,MS,Mississippi,True,,10813.0,21.3,28057,Itawamba,"{""28057"": 99.56, ""28081"": 0.44}",Itawamba|Lee,28057|28081,False,False,America/Chicago
38844,33.839,-88.25593,Gattman,MS,Mississippi,True,,217.0,6.4,28095,Monroe,"{""28095"": 100}",Monroe,28095,False,False,America/Chicago
38846,34.85135,-88.39501,Glen,MS,Mississippi,True,,1972.0,22.0,28003,Alcorn,"{""28003"": 80.12, ""28141"": 19.88}",Alcorn|Tishomingo,28003|28141,False,False,America/Chicago
38847,34.40772,-88.24074,Golden,MS,Mississippi,True,,3519.0,14.8,28057,Itawamba,"{""28057"": 87.07, ""28141"": 12.93}",Itawamba|Tishomingo,28057|28141,False,False,America/Chicago
38848,33.94523,-88.27797,Greenwood Springs,MS,Mississippi,True,,696.0,3.3,28095,Monroe,"{""28095"": 100}",Monroe,28095,False,False,America/Chicago
38849,34.45442,-88.69319,Guntown,MS,Mississippi,True,,6052.0,32.2,28081,Lee,"{""28081"": 81.11, ""28145"": 17.92, ""28057"": 0.97}",Lee|Union|Itawamba,28081|28145|28057,False,False,America/Chicago
38850,34.04792,-89.06705,Houlka,MS,Mississippi,True,,2536.0,7.0,28017,Chickasaw,"{""28017"": 61.29, ""28013"": 21.15, ""28115"": 17.56}",Chickasaw|Calhoun|Pontotoc,28017|28013|28115,False,False,America/Chicago
38851,33.90763,-88.9637,Houston,MS,Mississippi,True,,8757.0,15.5,28017,Chickasaw,"{""28017"": 100}",Chickasaw,28017,False,False,America/Chicago
38852,34.84484,-88.21598,Iuka,MS,Mississippi,True,,9016.0,17.6,28141,Tishomingo,"{""28141"": 99.7, ""01033"": 0.3}",Tishomingo|Colbert,28141|01033,False,False,America/Chicago
38855,34.32646,-88.48659,Mantachie,MS,Mississippi,True,,4501.0,28.1,28057,Itawamba,"{""28057"": 100}",Itawamba,28057,False,False,America/Chicago
38856,34.46835,-88.44553,Marietta,MS,Mississippi,True,,2254.0,14.8,28057,Itawamba,"{""28057"": 54.63, ""28117"": 45.37}",Itawamba|Prentiss,28057|28117,False,False,America/Chicago
38857,34.28004,-88.57808,Mooreville,MS,Mississippi,True,,4804.0,97.7,28081,Lee,"{""28081"": 100}",Lee,28081,False,False,America/Chicago
38858,34.10145,-88.53726,Nettleton,MS,Mississippi,True,,7579.0,24.0,28057,Itawamba,"{""28057"": 44.88, ""28095"": 37.48, ""28081"": 17.64}",Itawamba|Monroe|Lee,28057|28095|28081,False,False,America/Chicago
38859,34.52865,-88.37548,New Site,MS,Mississippi,True,,747.0,6.6,28117,Prentiss,"{""28117"": 100}",Prentiss,28117,False,False,America/Chicago
38860,33.97649,-88.75879,Okolona,MS,Mississippi,True,,5621.0,15.7,28017,Chickasaw,"{""28017"": 74.43, ""28095"": 21.66, ""28081"": 3.37, ""28115"": 0.54}",Chickasaw|Monroe|Lee|Pontotoc,28017|28095|28081|28115,False,False,America/Chicago
38862,34.16871,-88.62048,Plantersville,MS,Mississippi,True,,2517.0,32.6,28081,Lee,"{""28081"": 100}",Lee,28081,False,False,America/Chicago
38863,34.2167,-89.02738,Pontotoc,MS,Mississippi,True,,20526.0,27.3,28115,Pontotoc,"{""28115"": 96.06, ""28071"": 3.94}",Pontotoc|Lafayette,28115|28071,False,False,America/Chicago
38864,34.14325,-89.20167,Randolph,MS,Mississippi,True,,2221.0,10.8,28115,Pontotoc,"{""28115"": 77.87, ""28013"": 22.13}",Pontotoc|Calhoun,28115|28013,False,False,America/Chicago
38865,34.78003,-88.58821,Rienzi,MS,Mississippi,True,,5156.0,16.8,28003,Alcorn,"{""28003"": 78.41, ""28117"": 21.59}",Alcorn|Prentiss,28003|28117,False,False,America/Chicago
38866,34.36644,-88.68187,Saltillo,MS,Mississippi,True,,12538.0,64.2,28081,Lee,"{""28081"": 100}",Lee,28081,False,False,America/Chicago
38868,34.12168,-88.74692,Shannon,MS,Mississippi,True,,6238.0,33.0,28081,Lee,"{""28081"": 74.26, ""28115"": 15.43, ""28095"": 7.38, ""28017"": 2.93}",Lee|Pontotoc|Monroe|Chickasaw,28081|28115|28095|28017,False,False,America/Chicago
38869,34.35627,-88.83635,Sherman,MS,Mississippi,True,,430.0,157.6,28115,Pontotoc,"{""28115"": 100}",Pontotoc,28115,False,False,America/Chicago
38870,34.06886,-88.34125,Smithville,MS,Mississippi,True,,2328.0,13.1,28095,Monroe,"{""28095"": 70.67, ""28057"": 29.33}",Monroe|Itawamba,28095|28057,False,False,America/Chicago
38871,34.33582,-89.2055,Thaxton,MS,Mississippi,True,,1781.0,12.4,28115,Pontotoc,"{""28115"": 75.06, ""28071"": 16.97, ""28145"": 7.97}",Pontotoc|Lafayette|Union,28115|28071|28145,False,False,America/Chicago
38873,34.66169,-88.25141,Tishomingo,MS,Mississippi,True,,2876.0,12.0,28141,Tishomingo,"{""28141"": 93.58, ""28117"": 6.42}",Tishomingo|Prentiss,28141|28117,False,False,America/Chicago
38876,34.21457,-88.23112,Tremont,MS,Mississippi,True,,1442.0,7.4,28057,Itawamba,"{""28057"": 100}",Itawamba,28057,False,False,America/Chicago
38878,33.88179,-89.19231,Vardaman,MS,Mississippi,True,,2712.0,12.0,28013,Calhoun,"{""28013"": 94.16, ""28017"": 5.84}",Calhoun|Chickasaw,28013|28017,False,False,America/Chicago
38879,34.19519,-88.71209,Verona,MS,Mississippi,True,,888.0,2882.2,28081,Lee,"{""28081"": 100}",Lee,28081,False,False,America/Chicago
38901,33.76275,-89.79799,Grenada,MS,Mississippi,True,,17668.0,28.2,28043,Grenada,"{""28043"": 86.23, ""28015"": 9.33, ""28135"": 3.56, ""28097"": 0.88}",Grenada|Carroll|Tallahatchie|Montgomery,28043|28015|28135|28097,False,False,America/Chicago
38913,34.13774,-89.37836,Banner,MS,Mississippi,True,,487.0,8.2,28013,Calhoun,"{""28013"": 97.5, ""28071"": 2.5}",Calhoun|Lafayette,28013|28071,False,False,America/Chicago
38914,33.86466,-89.46453,Big Creek,MS,Mississippi,True,,880.0,6.9,28013,Calhoun,"{""28013"": 93.62, ""28043"": 6.38}",Calhoun|Grenada,28013|28043,False,False,America/Chicago
38915,34.02807,-89.38957,Bruce,MS,Mississippi,True,,3404.0,11.9,28013,Calhoun,"{""28013"": 100}",Calhoun,28013,False,False,America/Chicago
38916,33.81815,-89.35158,Calhoun City,MS,Mississippi,True,,5244.0,11.5,28013,Calhoun,"{""28013"": 95.5, ""28155"": 4.5}",Calhoun|Webster,28013|28155,False,False,America/Chicago
38917,33.54902,-89.95501,Carrollton,MS,Mississippi,True,,2993.0,6.9,28015,Carroll,"{""28015"": 100}",Carroll,28015,False,False,America/Chicago
38920,33.8823,-90.05018,Cascilla,MS,Mississippi,True,,585.0,4.4,28135,Tallahatchie,"{""28135"": 100}",Tallahatchie,28135,False,False,America/Chicago
38921,33.98328,-90.1425,Charleston,MS,Mississippi,True,,5061.0,13.2,28135,Tallahatchie,"{""28135"": 100}",Tallahatchie,28135,False,False,America/Chicago
38922,33.93641,-89.64878,Coffeeville,MS,Mississippi,True,,3037.0,5.3,28161,Yalobusha,"{""28161"": 80.38, ""28043"": 19.62}",Yalobusha|Grenada,28161|28043,False,False,America/Chicago
38923,33.37829,-89.99354,Coila,MS,Mississippi,True,,598.0,2.8,28015,Carroll,"{""28015"": 100}",Carroll,28015,False,False,America/Chicago
38924,33.29342,-90.22392,Cruger,MS,Mississippi,True,,369.0,1.2,28051,Holmes,"{""28051"": 66.45, ""28053"": 15.94, ""28015"": 10.89, ""28083"": 6.72}",Holmes|Humphreys|Carroll|Leflore,28051|28053|28015|28083,False,False,America/Chicago
38925,33.62917,-89.61961,Duck Hill,MS,Mississippi,True,,2357.0,5.8,28097,Montgomery,"{""28097"": 78.36, ""28043"": 11.35, ""28155"": 10.29}",Montgomery|Grenada|Webster,28097|28043|28155,False,False,America/Chicago
38927,34.13394,-90.01827,Enid,MS,Mississippi,True,,1186.0,7.7,28135,Tallahatchie,"{""28135"": 83.61, ""28107"": 15.12, ""28161"": 1.27}",Tallahatchie|Panola|Yalobusha,28135|28107|28161,False,False,America/Chicago
38928,33.85405,-90.28731,Glendora,MS,Mississippi,True,,406.0,4.5,28135,Tallahatchie,"{""28135"": 100}",Tallahatchie,28135,False,False,America/Chicago
38929,33.74014,-89.52425,Gore Springs,MS,Mississippi,True,,1872.0,10.2,28043,Grenada,"{""28043"": 60.72, ""28155"": 31.94, ""28013"": 7.34}",Grenada|Webster|Calhoun,28043|28155|28013,False,False,America/Chicago
38930,33.52845,-90.14245,Greenwood,MS,Mississippi,True,,23406.0,46.5,28083,Leflore,"{""28083"": 62.45, ""28015"": 37.55}",Leflore|Carroll,28083|28015,False,False,America/Chicago
38940,33.75145,-90.03505,Holcomb,MS,Mississippi,True,,1676.0,4.3,28043,Grenada,"{""28043"": 72.88, ""28135"": 19.12, ""28015"": 8.0}",Grenada|Tallahatchie|Carroll,28043|28135|28015,False,False,America/Chicago
38941,33.48655,-90.35909,Itta Bena,MS,Mississippi,True,,3922.0,14.3,28083,Leflore,"{""28083"": 100}",Leflore,28083,False,False,America/Chicago
38943,33.52033,-89.84525,McCarley,MS,Mississippi,True,,335.0,2.7,28015,Carroll,"{""28015"": 100}",Carroll,28015,False,False,America/Chicago
38944,33.76106,-90.34242,Minter City,MS,Mississippi,True,,375.0,1.5,28083,Leflore,"{""28083"": 96.71, ""28135"": 3.29}",Leflore|Tallahatchie,28083|28135,False,False,America/Chicago
38946,33.37701,-90.35591,Morgan City,MS,Mississippi,True,,264.0,10.7,28083,Leflore,"{""28083"": 100}",Leflore,28083,False,False,America/Chicago
38947,33.51718,-89.92128,North Carrollton,MS,Mississippi,True,,516.0,2156.5,28015,Carroll,"{""28015"": 100}",Carroll,28015,False,False,America/Chicago
38948,34.07635,-89.89364,Oakland,MS,Mississippi,True,,2361.0,8.8,28161,Yalobusha,"{""28161"": 69.26, ""28135"": 30.74}",Yalobusha|Tallahatchie,28161|28135,False,False,America/Chicago
38949,34.18542,-89.4151,Paris,MS,Mississippi,True,,386.0,13.1,28071,Lafayette,"{""28071"": 100}",Lafayette,28071,False,False,America/Chicago
38950,33.74281,-90.19758,Philipp,MS,Mississippi,True,,518.0,3.2,28135,Tallahatchie,"{""28135"": 71.55, ""28083"": 28.45}",Tallahatchie|Leflore,28135|28083,False,False,America/Chicago
38951,33.97605,-89.28802,Pittsboro,MS,Mississippi,True,,1128.0,8.4,28013,Calhoun,"{""28013"": 100}",Calhoun,28013,False,False,America/Chicago
38952,33.63041,-90.33711,Schlater,MS,Mississippi,True,,468.0,1.7,28083,Leflore,"{""28083"": 100}",Leflore,28083,False,False,America/Chicago
38953,33.91821,-89.92325,Scobey,MS,Mississippi,True,,513.0,5.5,28135,Tallahatchie,"{""28135"": 45.77, ""28161"": 41.8, ""28043"": 12.43}",Tallahatchie|Yalobusha|Grenada,28135|28161|28043,False,False,America/Chicago
38954,33.41301,-90.21536,Sidon,MS,Mississippi,True,,1137.0,6.8,28083,Leflore,"{""28083"": 82.03, ""28015"": 15.57, ""28051"": 2.4}",Leflore|Carroll|Holmes,28083|28015|28051,False,False,America/Chicago
38957,33.98747,-90.37296,Sumner,MS,Mississippi,True,,467.0,16.7,28135,Tallahatchie,"{""28135"": 100}",Tallahatchie,28135,False,False,America/Chicago
38961,33.96463,-89.8859,Tillatoba,MS,Mississippi,True,,660.0,3.5,28161,Yalobusha,"{""28161"": 68.49, ""28135"": 31.51}",Yalobusha|Tallahatchie,28161|28135,False,False,America/Chicago
38962,33.87201,-90.18465,Tippo,MS,Mississippi,True,,72.0,2.4,28135,Tallahatchie,"{""28135"": 100}",Tallahatchie,28135,False,False,America/Chicago
38963,34.00442,-90.40598,Tutwiler,MS,Mississippi,True,,3858.0,8.6,28135,Tallahatchie,"{""28135"": 62.93, ""28027"": 19.73, ""28133"": 17.34}",Tallahatchie|Coahoma|Sunflower,28135|28027|28133,False,False,America/Chicago
38964,34.11035,-90.38868,Vance,MS,Mississippi,True,,163.0,2.0,28119,Quitman,"{""28119"": 88.19, ""28135"": 11.81}",Quitman|Tallahatchie,28119|28135,False,False,America/Chicago
38965,34.13486,-89.59257,Water Valley,MS,Mississippi,True,,8380.0,12.9,28161,Yalobusha,"{""28161"": 58.72, ""28071"": 21.43, ""28013"": 15.77, ""28107"": 4.08}",Yalobusha|Lafayette|Calhoun|Panola,28161|28071|28013|28107,False,False,America/Chicago
38966,33.9202,-90.31828,Webb,MS,Mississippi,True,,733.0,11.5,28135,Tallahatchie,"{""28135"": 100}",Tallahatchie,28135,False,False,America/Chicago
38967,33.45832,-89.72026,Winona,MS,Mississippi,True,,7824.0,17.7,28097,Montgomery,"{""28097"": 61.23, ""28015"": 38.77}",Montgomery|Carroll,28097|28015,False,False,America/Chicago
39038,33.20179,-90.47023,Belzoni,MS,Mississippi,True,,5589.0,8.8,28053,Humphreys,"{""28053"": 73.06, ""28083"": 22.46, ""28051"": 2.82, ""28133"": 1.66}",Humphreys|Leflore|Holmes|Sunflower,28053|28083|28051|28133,False,False,America/Chicago
39039,32.82216,-90.22757,Benton,MS,Mississippi,True,,2108.0,5.7,28163,Yazoo,"{""28163"": 100}",Yazoo,28163,False,False,America/Chicago
39040,32.63907,-90.41314,Bentonia,MS,Mississippi,True,,3209.0,7.1,28163,Yazoo,"{""28163"": 100}",Yazoo,28163,False,False,America/Chicago
39041,32.41757,-90.47273,Bolton,MS,Mississippi,True,,3889.0,12.2,28049,Hinds,"{""28049"": 99.58, ""28089"": 0.42}",Hinds|Madison,28049|28089,False,False,America/Chicago
39042,32.2135,-89.88966,Brandon,MS,Mississippi,True,,36793.0,66.3,28121,Rankin,"{""28121"": 98.73, ""28129"": 1.27}",Rankin|Smith,28121|28129,False,False,America/Chicago
39044,32.02869,-89.97161,Braxton,MS,Mississippi,True,,3604.0,9.9,28127,Simpson,"{""28127"": 59.26, ""28121"": 40.74}",Simpson|Rankin,28127|28121,False,False,America/Chicago
39045,32.78735,-89.8173,Camden,MS,Mississippi,True,,1825.0,6.3,28089,Madison,"{""28089"": 100}",Madison,28089,False,False,America/Chicago
39046,32.62834,-89.99634,Canton,MS,Mississippi,True,,27693.0,34.3,28089,Madison,"{""28089"": 99.85, ""28163"": 0.15}",Madison|Yazoo,28089|28163,False,False,America/Chicago
39047,32.43356,-89.95011,Brandon,MS,Mississippi,True,,40496.0,161.3,28121,Rankin,"{""28121"": 100}",Rankin,28121,False,False,America/Chicago
39051,32.7868,-89.50718,Carthage,MS,Mississippi,True,,16199.0,14.5,28079,Leake,"{""28079"": 90.9, ""28099"": 5.43, ""28089"": 2.25, ""28007"": 1.42}",Leake|Neshoba|Madison|Attala,28079|28099|28089|28007,False,False,America/Chicago
39054,32.79855,-90.93525,Cary,MS,Mississippi,True,,472.0,13.6,28125,Sharkey,"{""28125"": 100}",Sharkey,28125,False,False,America/Chicago
39056,32.37384,-90.35083,Clinton,MS,Mississippi,True,,25357.0,180.5,28049,Hinds,"{""28049"": 100}",Hinds,28049,False,False,America/Chicago
39057,32.49268,-89.28381,Conehatta,MS,Mississippi,True,,2403.0,14.8,28101,Newton,"{""28101"": 87.51, ""28123"": 12.49}",Newton|Scott,28101|28123,False,False,America/Chicago
39058,32.33571,-90.33143,Clinton,MS,Mississippi,True,,,,28049,Hinds,"{""28049"": 100}",Hinds,28049,False,False,America/Chicago
39059,31.98194,-90.35141,Crystal Springs,MS,Mississippi,True,,11775.0,30.0,28029,Copiah,"{""28029"": 94.56, ""28049"": 5.44}",Copiah|Hinds,28029|28049,False,False,America/Chicago
39061,33.08597,-90.80324,Delta City,MS,Mississippi,True,,0.0,0.0,28125,Sharkey,"{""28125"": 100}",Sharkey,28125,False,False,America/Chicago
39062,31.98479,-89.89815,D Lo,MS,Mississippi,True,,600.0,163.3,28127,Simpson,"{""28127"": 100}",Simpson,28127,False,False,America/Chicago
39063,33.11698,-89.89975,Durant,MS,Mississippi,True,,3790.0,14.8,28051,Holmes,"{""28051"": 100}",Holmes,28051,False,False,America/Chicago
39066,32.30188,-90.60502,Edwards,MS,Mississippi,True,,5272.0,13.5,28049,Hinds,"{""28049"": 100}",Hinds,28049,False,False,America/Chicago
39067,33.11574,-89.44853,Ethel,MS,Mississippi,True,,1166.0,4.4,28007,Attala,"{""28007"": 100}",Attala,28007,False,False,America/Chicago
39069,31.6836,-91.04038,Fayette,MS,Mississippi,True,,4856.0,10.5,28063,Jefferson,"{""28063"": 97.04, ""28037"": 2.96}",Jefferson|Franklin,28063|28037,False,False,America/Chicago
39071,32.54887,-90.3185,Flora,MS,Mississippi,True,,6496.0,22.9,28089,Madison,"{""28089"": 99.1, ""28049"": 0.9}",Madison|Hinds,28089|28049,False,False,America/Chicago
39073,32.10269,-90.13049,Florence,MS,Mississippi,True,,21277.0,51.0,28121,Rankin,"{""28121"": 78.02, ""28127"": 21.98}",Rankin|Simpson,28121|28127,False,False,America/Chicago
39074,32.3872,-89.47398,Forest,MS,Mississippi,True,,14951.0,20.8,28123,Scott,"{""28123"": 83.23, ""28129"": 16.77}",Scott|Smith,28123|28129,False,False,America/Chicago
39078,31.87901,-90.19596,Georgetown,MS,Mississippi,True,,673.0,6.6,28029,Copiah,"{""28029"": 99.52, ""28127"": 0.48}",Copiah|Simpson,28029|28127,False,False,America/Chicago
39079,32.93178,-89.88449,Goodman,MS,Mississippi,True,,1720.0,8.4,28007,Attala,"{""28007"": 53.9, ""28051"": 36.98, ""28089"": 9.12}",Attala|Holmes|Madison,28007|28051|28089,False,False,America/Chicago
39082,31.94663,-90.12369,Harrisville,MS,Mississippi,True,,1184.0,7.5,28127,Simpson,"{""28127"": 100}",Simpson,28127,False,False,America/Chicago
39083,31.83467,-90.46997,Hazlehurst,MS,Mississippi,True,,9366.0,11.3,28029,Copiah,"{""28029"": 98.3, ""28085"": 1.7}",Copiah|Lincoln,28029|28085,False,False,America/Chicago
39086,31.96275,-90.75964,Hermanville,MS,Mississippi,True,,1638.0,3.5,28021,Claiborne,"{""28021"": 65.61, ""28029"": 34.39}",Claiborne|Copiah,28021|28029,False,False,America/Chicago
39088,32.73287,-90.7545,Holly Bluff,MS,Mississippi,True,,82.0,0.5,28125,Sharkey,"{""28125"": 100}",Sharkey,28125,False,False,America/Chicago
39090,33.00775,-89.54503,Kosciusko,MS,Mississippi,True,,12811.0,18.8,28007,Attala,"{""28007"": 84.11, ""28079"": 15.53, ""28159"": 0.36}",Attala|Leake|Winston,28007|28079|28159,False,False,America/Chicago
39092,32.31489,-89.36833,Lake,MS,Mississippi,True,,3059.0,11.7,28123,Scott,"{""28123"": 79.84, ""28101"": 14.18, ""28129"": 5.98}",Scott|Newton|Smith,28123|28101|28129,False,False,America/Chicago
39094,32.57497,-89.67591,Lena,MS,Mississippi,True,,3714.0,8.4,28079,Leake,"{""28079"": 43.08, ""28123"": 37.9, ""28121"": 19.01}",Leake|Scott|Rankin,28079|28123|28121,False,False,America/Chicago
39095,33.11929,-90.09452,Lexington,MS,Mississippi,True,,6117.0,6.7,28051,Holmes,"{""28051"": 91.85, ""28015"": 5.66, ""28163"": 2.49}",Holmes|Carroll|Yazoo,28051|28015|28163,False,False,America/Chicago
39096,31.82508,-91.11672,Lorman,MS,Mississippi,True,,2346.0,4.6,28063,Jefferson,"{""28063"": 81.75, ""28021"": 18.25}",Jefferson|Claiborne,28063|28021,False,False,America/Chicago
39097,32.99105,-90.59478,Louise,MS,Mississippi,True,,435.0,2.9,28053,Humphreys,"{""28053"": 100}",Humphreys,28053,False,False,America/Chicago
39108,33.15684,-89.33033,McCool,MS,Mississippi,True,,1492.0,3.0,28007,Attala,"{""28007"": 49.56, ""28019"": 27.75, ""28159"": 22.68}",Attala|Choctaw|Winston,28007|28019|28159,False,False,America/Chicago
39110,32.50325,-90.13791,Madison,MS,Mississippi,True,,43336.0,225.1,28089,Madison,"{""28089"": 100}",Madison,28089,False,False,America/Chicago
39111,31.89536,-89.71816,Magee,MS,Mississippi,True,,8929.0,24.4,28127,Simpson,"{""28127"": 78.99, ""28129"": 21.01}",Simpson|Smith,28127|28129,False,False,America/Chicago
39113,32.82707,-91.06476,Mayersville,MS,Mississippi,True,,589.0,8.2,28055,Issaquena,"{""28055"": 100}",Issaquena,28055,False,False,America/Chicago
39114,31.95331,-89.83257,Mendenhall,MS,Mississippi,True,,10362.0,21.0,28127,Simpson,"{""28127"": 88.2, ""28121"": 11.8}",Simpson|Rankin,28127|28121,False,False,America/Chicago
39115,33.04679,-90.56133,Midnight,MS,Mississippi,True,,184.0,15.0,28053,Humphreys,"{""28053"": 100}",Humphreys,28053,False,False,America/Chicago
39116,31.89165,-89.54925,Mize,MS,Mississippi,True,,3126.0,14.1,28129,Smith,"{""28129"": 100}",Smith,28129,False,False,America/Chicago
39117,32.31096,-89.66413,Morton,MS,Mississippi,True,,10354.0,15.9,28123,Scott,"{""28123"": 70.37, ""28129"": 25.81, ""28121"": 3.82}",Scott|Smith|Rankin,28123|28129|28121,False,False,America/Chicago
39119,31.75236,-89.67509,Mount Olive,MS,Mississippi,True,,4733.0,12.4,28031,Covington,"{""28031"": 55.97, ""28129"": 15.85, ""28065"": 15.68, ""28127"": 12.5}",Covington|Smith|Jefferson Davis|Simpson,28031|28129|28065|28127,False,False,America/Chicago
39120,31.51148,-91.35206,Natchez,MS,Mississippi,True,,30733.0,24.5,28001,Adams,"{""28001"": 87.49, ""28063"": 12.51}",Adams|Jefferson,28001|28063,False,False,America/Chicago
39140,31.75211,-90.00512,Newhebron,MS,Mississippi,True,,2364.0,9.4,28065,Jefferson Davis,"{""28065"": 36.45, ""28127"": 32.01, ""28077"": 31.54}",Jefferson Davis|Simpson|Lawrence,28065|28127|28077,False,False,America/Chicago
39144,31.82971,-90.80155,Pattison,MS,Mississippi,True,,787.0,2.6,28021,Claiborne,"{""28021"": 61.13, ""28063"": 21.37, ""28029"": 17.5}",Claiborne|Jefferson|Copiah,28021|28063|28029,False,False,America/Chicago
39145,32.33862,-89.79819,Pelahatchie,MS,Mississippi,True,,5293.0,15.8,28121,Rankin,"{""28121"": 97.99, ""28123"": 2.01}",Rankin|Scott,28121|28123,False,False,America/Chicago
39146,32.88078,-89.99316,Pickens,MS,Mississippi,True,,2779.0,7.9,28089,Madison,"{""28089"": 42.62, ""28051"": 40.22, ""28163"": 17.16}",Madison|Holmes|Yazoo,28089|28051|28163,False,False,America/Chicago
39148,32.06159,-89.99459,Piney Woods,MS,Mississippi,True,,,,28121,Rankin,"{""28121"": 100}",Rankin,28121,False,False,America/Chicago
39149,31.83354,-90.00985,Pinola,MS,Mississippi,True,,1211.0,5.9,28127,Simpson,"{""28127"": 100}",Simpson,28127,False,False,America/Chicago
39150,31.99264,-90.98487,Port Gibson,MS,Mississippi,True,,5305.0,9.0,28021,Claiborne,"{""28021"": 100}",Claiborne,28021,False,False,America/Chicago
39152,32.2011,-89.57779,Pulaski,MS,Mississippi,True,,1059.0,5.7,28129,Smith,"{""28129"": 65.01, ""28123"": 34.99}",Smith|Scott,28129|28123,False,False,America/Chicago
39153,32.05133,-89.50159,Raleigh,MS,Mississippi,True,,2935.0,7.5,28129,Smith,"{""28129"": 100}",Smith,28129,False,False,America/Chicago
39154,32.22695,-90.44762,Raymond,MS,Mississippi,True,,10276.0,33.9,28049,Hinds,"{""28049"": 100}",Hinds,28049,False,False,America/Chicago
39156,32.53901,-90.77056,Redwood,MS,Mississippi,True,,523.0,3.3,28149,Warren,"{""28149"": 100}",Warren,28149,False,False,America/Chicago
39157,32.42537,-90.16685,Ridgeland,MS,Mississippi,True,,24811.0,319.0,28089,Madison,"{""28089"": 100}",Madison,28089,False,False,America/Chicago
39159,32.82894,-90.92476,Rolling Fork,MS,Mississippi,True,,3133.0,3.2,28125,Sharkey,"{""28125"": 55.42, ""28055"": 44.58}",Sharkey|Issaquena,28125|28055,False,False,America/Chicago
39160,32.99756,-89.75336,Sallis,MS,Mississippi,True,,2989.0,8.2,28007,Attala,"{""28007"": 91.73, ""28079"": 8.27}",Attala|Leake,28007|28079,False,False,America/Chicago
39162,32.62627,-90.63395,Satartia,MS,Mississippi,True,,54.0,0.4,28163,Yazoo,"{""28163"": 100}",Yazoo,28163,False,False,America/Chicago
39166,33.05161,-90.48208,Silver City,MS,Mississippi,True,,705.0,4.8,28053,Humphreys,"{""28053"": 100}",Humphreys,28053,False,False,America/Chicago
39167,32.09316,-90.04003,Star,MS,Mississippi,True,,0.0,0.0,28121,Rankin,"{""28121"": 100}",Rankin,28121,False,False,America/Chicago
39168,31.82994,-89.40974,Taylorsville,MS,Mississippi,True,,6441.0,16.7,28129,Smith,"{""28129"": 64.53, ""28067"": 19.84, ""28031"": 15.63}",Smith|Jones|Covington,28129|28067|28031,False,False,America/Chicago
39169,33.13515,-90.29371,Tchula,MS,Mississippi,True,,2846.0,9.0,28051,Holmes,"{""28051"": 100}",Holmes,28051,False,False,America/Chicago
39170,32.11182,-90.3377,Terry,MS,Mississippi,True,,10257.0,40.8,28049,Hinds,"{""28049"": 97.81, ""28029"": 2.19}",Hinds|Copiah,28049|28029,False,False,America/Chicago
39173,32.74247,-90.47219,Tinsley,MS,Mississippi,True,,,,28163,Yazoo,"{""28163"": 100}",Yazoo,28163,False,False,America/Chicago
39174,32.4009,-90.16018,Tougaloo,MS,Mississippi,True,,808.0,1272.5,28089,Madison,"{""28089"": 60.45, ""28049"": 39.55}",Madison|Hinds,28089|28049,False,False,America/Chicago
39175,32.09238,-90.62097,Utica,MS,Mississippi,True,,4009.0,6.6,28049,Hinds,"{""28049"": 58.85, ""28029"": 25.57, ""28021"": 15.58}",Hinds|Copiah|Claiborne,28049|28029|28021,False,False,America/Chicago
39176,33.30398,-89.74859,Vaiden,MS,Mississippi,True,,2592.0,7.4,28015,Carroll,"{""28015"": 68.61, ""28007"": 20.95, ""28097"": 10.44}",Carroll|Attala|Montgomery,28015|28007|28097,False,False,America/Chicago
39177,32.61286,-90.84546,Valley Park,MS,Mississippi,True,,183.0,0.7,28055,Issaquena,"{""28055"": 100}",Issaquena,28055,False,False,America/Chicago
39179,32.80873,-90.0984,Vaughan,MS,Mississippi,True,,853.0,3.7,28163,Yazoo,"{""28163"": 100}",Yazoo,28163,False,False,America/Chicago
39180,32.223,-90.90225,Vicksburg,MS,Mississippi,True,,31720.0,46.9,28149,Warren,"{""28149"": 100}",Warren,28149,False,False,America/Chicago
39183,32.4554,-90.83307,Vicksburg,MS,Mississippi,True,,13787.0,17.3,28149,Warren,"{""28149"": 86.63, ""28055"": 13.37}",Warren|Issaquena,28149|28055,False,False,America/Chicago
39189,32.60412,-89.4003,Walnut Grove,MS,Mississippi,True,,3915.0,19.7,28079,Leake,"{""28079"": 74.36, ""28123"": 25.64}",Leake|Scott,28079|28123,False,False,America/Chicago
39191,31.71492,-90.40764,Wesson,MS,Mississippi,True,,8252.0,14.5,28029,Copiah,"{""28029"": 60.36, ""28085"": 38.08, ""28077"": 1.56}",Copiah|Lincoln|Lawrence,28029|28085|28077,False,False,America/Chicago
39192,33.19153,-89.75324,West,MS,Mississippi,True,,1895.0,5.0,28007,Attala,"{""28007"": 57.22, ""28051"": 29.55, ""28015"": 13.23}",Attala|Holmes|Carroll,28007|28051|28015,False,False,America/Chicago
39193,32.23625,-90.07681,Whitfield,MS,Mississippi,True,,960.0,202.7,28121,Rankin,"{""28121"": 100}",Rankin,28121,False,False,America/Chicago
39194,32.83423,-90.49856,Yazoo City,MS,Mississippi,True,,22156.0,18.8,28163,Yazoo,"{""28163"": 94.47, ""28053"": 5.53}",Yazoo|Humphreys,28163|28053,False,False,America/Chicago
39201,32.28981,-90.18398,Jackson,MS,Mississippi,True,,918.0,170.7,28049,Hinds,"{""28049"": 100}",Hinds,28049,False,False,America/Chicago
39202,32.31105,-90.16956,Jackson,MS,Mississippi,True,,7836.0,780.7,28049,Hinds,"{""28049"": 100}",Hinds,28049,False,False,America/Chicago
39203,32.30928,-90.20042,Jackson,MS,Mississippi,True,,6689.0,1139.6,28049,Hinds,"{""28049"": 100}",Hinds,28049,False,False,America/Chicago
39204,32.28313,-90.23689,Jackson,MS,Mississippi,True,,15933.0,652.5,28049,Hinds,"{""28049"": 100}",Hinds,28049,False,False,America/Chicago
39206,32.37237,-90.17268,Jackson,MS,Mississippi,True,,23641.0,1032.0,28049,Hinds,"{""28049"": 100}",Hinds,28049,False,False,America/Chicago
39208,32.25827,-90.08908,Pearl,MS,Mississippi,True,,32926.0,265.9,28121,Rankin,"{""28121"": 100}",Rankin,28121,False,False,America/Chicago
39209,32.39498,-90.30168,Jackson,MS,Mississippi,True,,26835.0,166.3,28049,Hinds,"{""28049"": 96.78, ""28089"": 3.22}",Hinds|Madison,28049|28089,False,False,America/Chicago
39210,32.32255,-90.17997,Jackson,MS,Mississippi,True,,,,28049,Hinds,"{""28049"": 100}",Hinds,28049,False,False,America/Chicago
39211,32.37176,-90.12219,Jackson,MS,Mississippi,True,,23872.0,748.7,28049,Hinds,"{""28049"": 100}",Hinds,28049,False,False,America/Chicago
39212,32.24081,-90.26174,Jackson,MS,Mississippi,True,,32680.0,426.2,28049,Hinds,"{""28049"": 100}",Hinds,28049,False,False,America/Chicago
39213,32.39384,-90.23007,Jackson,MS,Mississippi,True,,20379.0,278.2,28049,Hinds,"{""28049"": 97.01, ""28089"": 2.99}",Hinds|Madison,28049|28089,False,False,America/Chicago
39216,32.33463,-90.1606,Jackson,MS,Mississippi,True,,4080.0,507.9,28049,Hinds,"{""28049"": 100}",Hinds,28049,False,False,America/Chicago
39217,32.29754,-90.20963,Jackson,MS,Mississippi,True,,,,28049,Hinds,"{""28049"": 100}",Hinds,28049,False,False,America/Chicago
39218,32.22825,-90.15857,Richland,MS,Mississippi,True,,6947.0,151.3,28121,Rankin,"{""28121"": 100}",Rankin,28121,False,False,America/Chicago
39232,32.3361,-90.08693,Flowood,MS,Mississippi,True,,8179.0,123.5,28121,Rankin,"{""28121"": 100}",Rankin,28121,False,False,America/Chicago
39269,32.30114,-90.1889,Jackson,MS,Mississippi,True,,0.0,0.0,28049,Hinds,"{""28049"": 100}",Hinds,28049,False,False,America/Chicago
39272,32.18838,-90.26335,Byram,MS,Mississippi,True,,13073.0,214.8,28049,Hinds,"{""28049"": 100}",Hinds,28049,False,False,America/Chicago
39301,32.27289,-88.59226,Meridian,MS,Mississippi,True,,24911.0,36.9,28075,Lauderdale,"{""28075"": 68.9, ""28023"": 31.1}",Lauderdale|Clarke,28075|28023,False,False,America/Chicago
39305,32.46392,-88.72465,Meridian,MS,Mississippi,True,,20419.0,79.5,28075,Lauderdale,"{""28075"": 100}",Lauderdale,28075,False,False,America/Chicago
39307,32.33847,-88.79217,Meridian,MS,Mississippi,True,,16926.0,72.1,28075,Lauderdale,"{""28075"": 100}",Lauderdale,28075,False,False,America/Chicago
39309,32.55417,-88.57422,Meridian,MS,Mississippi,True,,,,28075,Lauderdale,"{""28075"": 100}",Lauderdale,28075,False,False,America/Chicago
39320,32.56169,-88.74507,Bailey,MS,Mississippi,True,,2308.0,19.0,28075,Lauderdale,"{""28075"": 57.75, ""28069"": 42.25}",Lauderdale|Kemper,28075|28069,False,False,America/Chicago
39322,31.58344,-88.53203,Buckatunna,MS,Mississippi,True,,2054.0,10.8,28153,Wayne,"{""28153"": 100}",Wayne,28153,False,False,America/Chicago
39323,32.34971,-88.92624,Chunky,MS,Mississippi,True,,1110.0,7.2,28101,Newton,"{""28101"": 66.39, ""28075"": 33.61}",Newton|Lauderdale,28101|28075,False,False,America/Chicago
39324,31.58032,-88.69755,Clara,MS,Mississippi,True,,,,28153,Wayne,"{""28153"": 100}",Wayne,28153,False,False,America/Chicago
39325,32.56198,-88.87362,Collinsville,MS,Mississippi,True,,6434.0,23.3,28075,Lauderdale,"{""28075"": 56.0, ""28069"": 29.83, ""28099"": 10.14, ""28101"": 4.03}",Lauderdale|Kemper|Neshoba|Newton,28075|28069|28099|28101,False,False,America/Chicago
39326,32.59814,-88.67904,Daleville,MS,Mississippi,True,,310.0,3.1,28069,Kemper,"{""28069"": 72.94, ""28075"": 27.06}",Kemper|Lauderdale,28069|28075,False,False,America/Chicago
39327,32.44563,-89.12173,Decatur,MS,Mississippi,True,,4044.0,14.9,28101,Newton,"{""28101"": 100}",Newton,28101,False,False,America/Chicago
39328,32.75012,-88.69564,De Kalb,MS,Mississippi,True,,5149.0,6.3,28069,Kemper,"{""28069"": 100}",Kemper,28069,False,False,America/Chicago
39330,32.19385,-88.85689,Enterprise,MS,Mississippi,True,,2450.0,7.4,28023,Clarke,"{""28023"": 58.06, ""28075"": 28.66, ""28061"": 8.81, ""28101"": 4.47}",Clarke|Lauderdale|Jasper|Newton,28023|28075|28061|28101,False,False,America/Chicago
39332,32.30399,-89.0046,Hickory,MS,Mississippi,True,,2107.0,12.7,28101,Newton,"{""28101"": 90.2, ""28061"": 9.8}",Newton|Jasper,28101|28061,False,False,America/Chicago
39335,32.53214,-88.49263,Lauderdale,MS,Mississippi,True,,2179.0,8.3,28075,Lauderdale,"{""28075"": 85.38, ""28069"": 14.62}",Lauderdale|Kemper,28075|28069,False,False,America/Chicago
39336,32.29081,-89.27253,Lawrence,MS,Mississippi,True,,1113.0,6.1,28101,Newton,"{""28101"": 86.86, ""28061"": 8.6, ""28129"": 4.54}",Newton|Jasper|Smith,28101|28061|28129,False,False,America/Chicago
39337,32.51447,-88.98528,Little Rock,MS,Mississippi,True,,1714.0,9.8,28101,Newton,"{""28101"": 94.15, ""28099"": 5.85}",Newton|Neshoba,28101|28099,False,False,America/Chicago
39338,32.11034,-89.23274,Louin,MS,Mississippi,True,,3954.0,7.3,28061,Jasper,"{""28061"": 81.72, ""28129"": 18.28}",Jasper|Smith,28061|28129,False,False,America/Chicago
39339,33.10417,-89.00259,Louisville,MS,Mississippi,True,,14845.0,14.6,28159,Winston,"{""28159"": 100}",Winston,28159,False,False,America/Chicago
39341,33.0998,-88.55702,Macon,MS,Mississippi,True,,6599.0,6.7,28103,Noxubee,"{""28103"": 96.32, ""28159"": 3.68}",Noxubee|Winston,28103|28159,False,False,America/Chicago
39342,32.42566,-88.64968,Marion,MS,Mississippi,True,,1738.0,216.8,28075,Lauderdale,"{""28075"": 100}",Lauderdale,28075,False,False,America/Chicago
39345,32.28717,-89.12974,Newton,MS,Mississippi,True,,5658.0,15.5,28101,Newton,"{""28101"": 83.58, ""28061"": 16.42}",Newton|Jasper,28101|28061,False,False,America/Chicago
39346,32.96171,-89.089,Noxapater,MS,Mississippi,True,,1829.0,9.0,28159,Winston,"{""28159"": 85.82, ""28099"": 14.18}",Winston|Neshoba,28159|28099,False,False,America/Chicago
39347,32.05507,-88.93419,Pachuta,MS,Mississippi,True,,1402.0,6.9,28061,Jasper,"{""28061"": 65.15, ""28023"": 34.85}",Jasper|Clarke,28061|28023,False,False,America/Chicago
39348,32.00007,-89.03475,Paulding,MS,Mississippi,True,,489.0,4.8,28061,Jasper,"{""28061"": 100}",Jasper,28061,False,False,America/Chicago
39350,32.79674,-89.12984,Philadelphia,MS,Mississippi,True,,25015.0,23.4,28099,Neshoba,"{""28099"": 90.54, ""28159"": 5.82, ""28069"": 1.98, ""28079"": 1.66}",Neshoba|Winston|Kemper|Leake,28099|28159|28069|28079,False,False,America/Chicago
39352,32.66834,-88.47808,Porterville,MS,Mississippi,True,,582.0,2.5,28069,Kemper,"{""28069"": 100}",Kemper,28069,False,False,America/Chicago
39354,32.87945,-88.83625,Preston,MS,Mississippi,True,,2988.0,9.4,28069,Kemper,"{""28069"": 72.4, ""28159"": 11.84, ""28103"": 7.96, ""28099"": 7.8}",Kemper|Winston|Noxubee|Neshoba,28069|28159|28103|28099,False,False,America/Chicago
39355,32.05808,-88.61965,Quitman,MS,Mississippi,True,,5718.0,7.9,28023,Clarke,"{""28023"": 100}",Clarke,28023,False,False,America/Chicago
39356,32.13632,-89.0283,Rose Hill,MS,Mississippi,True,,521.0,3.1,28061,Jasper,"{""28061"": 100}",Jasper,28061,False,False,America/Chicago
39358,32.83317,-88.45605,Scooba,MS,Mississippi,True,,1335.0,2.9,28069,Kemper,"{""28069"": 96.25, ""28103"": 3.75}",Kemper|Noxubee,28069|28103,False,False,America/Chicago
39359,32.56852,-89.33206,Sebastopol,MS,Mississippi,True,,301.0,103.6,28123,Scott,"{""28123"": 100}",Scott,28123,False,False,America/Chicago
39360,31.86357,-88.7409,Shubuta,MS,Mississippi,True,,3993.0,6.9,28023,Clarke,"{""28023"": 61.58, ""28153"": 38.42}",Clarke|Wayne,28023|28153,False,False,America/Chicago
39361,32.97952,-88.61234,Shuqualak,MS,Mississippi,True,,1356.0,4.0,28103,Noxubee,"{""28103"": 99.85, ""28069"": 0.15}",Noxubee|Kemper,28103|28069,False,False,America/Chicago
39362,31.39326,-88.53988,State Line,MS,Mississippi,True,,3994.0,7.9,28041,Greene,"{""28041"": 64.81, ""28153"": 35.19}",Greene|Wayne,28041|28153,False,False,America/Chicago
39363,32.11918,-88.77628,Stonewall,MS,Mississippi,True,,1468.0,24.4,28023,Clarke,"{""28023"": 100}",Clarke,28023,False,False,America/Chicago
39364,32.40597,-88.49617,Toomsuba,MS,Mississippi,True,,2743.0,12.7,28075,Lauderdale,"{""28075"": 100}",Lauderdale,28075,False,False,America/Chicago
39365,32.60486,-89.12225,Union,MS,Mississippi,True,,7705.0,15.5,28099,Neshoba,"{""28099"": 71.03, ""28101"": 28.26, ""28079"": 0.55, ""28069"": 0.16}",Neshoba|Newton|Leake|Kemper,28099|28101|28079|28069,False,False,America/Chicago
39366,31.93795,-88.90057,Vossburg,MS,Mississippi,True,,879.0,5.1,28023,Clarke,"{""28023"": 56.01, ""28061"": 43.99}",Clarke|Jasper,28023|28061,False,False,America/Chicago
39367,31.68219,-88.6644,Waynesboro,MS,Mississippi,True,,14522.0,12.2,28153,Wayne,"{""28153"": 95.41, ""28023"": 4.59}",Wayne|Clarke,28153|28023,False,False,America/Chicago
39401,31.23496,-89.26912,Hattiesburg,MS,Mississippi,True,,40933.0,83.7,28035,Forrest,"{""28035"": 95.42, ""28067"": 3.93, ""28031"": 0.44, ""28073"": 0.21}",Forrest|Jones|Covington|Lamar,28035|28067|28031|28073,False,False,America/Chicago
39402,31.33446,-89.4132,Hattiesburg,MS,Mississippi,True,,40886.0,169.3,28073,Lamar,"{""28073"": 56.44, ""28035"": 41.92, ""28031"": 1.64}",Lamar|Forrest|Covington,28073|28035|28031,False,False,America/Chicago
39406,31.32895,-89.33515,Hattiesburg,MS,Mississippi,True,,1727.0,1960.5,28035,Forrest,"{""28035"": 100}",Forrest,28035,False,False,America/Chicago
39421,31.48411,-89.71179,Bassfield,MS,Mississippi,True,,2985.0,17.3,28065,Jefferson Davis,"{""28065"": 82.76, ""28091"": 17.24}",Jefferson Davis|Marion,28065|28091,False,False,America/Chicago
39422,31.95953,-89.26745,Bay Springs,MS,Mississippi,True,,4330.0,11.9,28061,Jasper,"{""28061"": 71.46, ""28129"": 28.54}",Jasper|Smith,28061|28129,False,False,America/Chicago
39423,31.17553,-88.91103,Beaumont,MS,Mississippi,True,,2832.0,11.3,28111,Perry,"{""28111"": 97.37, ""28041"": 2.63}",Perry|Greene,28111|28041,False,False,America/Chicago
39425,31.05633,-89.06322,Brooklyn,MS,Mississippi,True,,2756.0,5.0,28111,Perry,"{""28111"": 79.46, ""28035"": 20.54}",Perry|Forrest,28111|28035,False,False,America/Chicago
39426,30.65375,-89.65709,Carriere,MS,Mississippi,True,,17571.0,37.1,28109,Pearl River,"{""28109"": 89.75, ""28045"": 10.25}",Pearl River|Hancock,28109|28045,False,False,America/Chicago
39427,31.48693,-89.82701,Carson,MS,Mississippi,True,,1404.0,9.6,28065,Jefferson Davis,"{""28065"": 100}",Jefferson Davis,28065,False,False,America/Chicago
39428,31.65017,-89.57215,Collins,MS,Mississippi,True,,9410.0,20.4,28031,Covington,"{""28031"": 100}",Covington,28031,False,False,America/Chicago
39429,31.25052,-89.76337,Columbia,MS,Mississippi,True,,16540.0,21.4,28091,Marion,"{""28091"": 95.96, ""28073"": 2.69, ""28065"": 1.35}",Marion|Lamar|Jefferson Davis,28091|28073|28065,False,False,America/Chicago
39437,31.57883,-89.21981,Ellisville,MS,Mississippi,True,,12844.0,29.2,28067,Jones,"{""28067"": 100}",Jones,28067,False,False,America/Chicago
39439,31.85865,-89.00227,Heidelberg,MS,Mississippi,True,,4769.0,13.5,28061,Jasper,"{""28061"": 67.12, ""28067"": 19.04, ""28023"": 6.96, ""28153"": 6.88}",Jasper|Jones|Clarke|Wayne,28061|28067|28023|28153,False,False,America/Chicago
39440,31.694,-89.14791,Laurel,MS,Mississippi,True,,21365.0,466.1,28067,Jones,"{""28067"": 100}",Jones,28067,False,False,America/Chicago
39443,31.71932,-89.07376,Laurel,MS,Mississippi,True,,21505.0,28.4,28067,Jones,"{""28067"": 68.43, ""28153"": 17.53, ""28061"": 14.04}",Jones|Wayne|Jasper,28067|28153|28061,False,False,America/Chicago
39451,31.16722,-88.61757,Leakesville,MS,Mississippi,True,,7377.0,10.9,28041,Greene,"{""28041"": 100}",Greene,28041,False,False,America/Chicago
39452,30.88002,-88.59097,Lucedale,MS,Mississippi,True,,26818.0,19.3,28039,George,"{""28039"": 71.97, ""28041"": 16.71, ""28059"": 11.32}",George|Greene|Jackson,28039|28041|28059,False,False,America/Chicago
39455,31.01084,-89.46931,Lumberton,MS,Mississippi,True,,10126.0,10.6,28073,Lamar,"{""28073"": 45.91, ""28109"": 31.17, ""28035"": 10.67, ""28131"": 8.47, ""28091"": 3.78}",Lamar|Pearl River|Forrest|Stone|Marion,28073|28109|28035|28131|28091,False,False,America/Chicago
39456,31.0282,-88.81819,McLain,MS,Mississippi,True,,681.0,2.3,28041,Greene,"{""28041"": 46.42, ""28111"": 29.69, ""28039"": 23.89}",Greene|Perry|George,28041|28111|28039,False,False,America/Chicago
39459,31.49021,-89.30216,Moselle,MS,Mississippi,True,,3816.0,23.6,28067,Jones,"{""28067"": 100}",Jones,28067,False,False,America/Chicago
39461,31.18703,-88.73992,Neely,MS,Mississippi,True,,463.0,4.1,28041,Greene,"{""28041"": 100}",Greene,28041,False,False,America/Chicago
39462,31.22105,-89.05738,New Augusta,MS,Mississippi,True,,982.0,6.7,28111,Perry,"{""28111"": 100}",Perry,28111,False,False,America/Chicago
39464,31.49268,-89.06129,Ovett,MS,Mississippi,True,,2887.0,10.5,28067,Jones,"{""28067"": 84.33, ""28111"": 15.67}",Jones|Perry,28067|28111,False,False,America/Chicago
39465,31.34456,-89.18751,Petal,MS,Mississippi,True,,22111.0,69.6,28035,Forrest,"{""28035"": 76.55, ""28111"": 22.87, ""28067"": 0.58}",Forrest|Perry|Jones,28035|28111|28067,False,False,America/Chicago
39466,30.53328,-89.63424,Picayune,MS,Mississippi,True,,28348.0,71.6,28109,Pearl River,"{""28109"": 63.33, ""28045"": 36.67}",Pearl River|Hancock,28109|28045,False,False,America/Chicago
39470,30.81602,-89.57581,Poplarville,MS,Mississippi,True,,11978.0,10.8,28109,Pearl River,"{""28109"": 98.8, ""28045"": 1.08, ""28131"": 0.12}",Pearl River|Hancock|Stone,28109|28045|28131,False,False,America/Chicago
39474,31.61739,-89.85458,Prentiss,MS,Mississippi,True,,5526.0,13.9,28065,Jefferson Davis,"{""28065"": 99.36, ""28031"": 0.64}",Jefferson Davis|Covington,28065|28031,False,False,America/Chicago
39475,31.15496,-89.4129,Purvis,MS,Mississippi,True,,13915.0,33.9,28073,Lamar,"{""28073"": 82.94, ""28035"": 17.06}",Lamar|Forrest,28073|28035,False,False,America/Chicago
39476,31.37855,-88.86764,Richton,MS,Mississippi,True,,7439.0,6.9,28111,Perry,"{""28111"": 41.87, ""28041"": 32.76, ""28153"": 19.65, ""28067"": 5.72}",Perry|Greene|Wayne|Jones,28111|28041|28153|28067,False,False,America/Chicago
39477,31.79291,-89.03579,Sandersville,MS,Mississippi,True,,626.0,46.3,28067,Jones,"{""28067"": 100}",Jones,28067,False,False,America/Chicago
39478,31.05306,-89.85768,Sandy Hook,MS,Mississippi,True,,1961.0,10.3,28091,Marion,"{""28091"": 54.06, ""28147"": 45.94}",Marion|Walthall,28091|28147,False,False,America/Chicago
39479,31.53775,-89.46065,Seminary,MS,Mississippi,True,,6394.0,19.9,28031,Covington,"{""28031"": 86.88, ""28067"": 13.12}",Covington|Jones,28031|28067,False,False,America/Chicago
39480,31.70889,-89.31529,Soso,MS,Mississippi,True,,3201.0,25.2,28067,Jones,"{""28067"": 95.42, ""28061"": 4.58}",Jones|Jasper,28067|28061,False,False,America/Chicago
39481,31.86738,-89.24457,Stringer,MS,Mississippi,True,,1746.0,18.0,28061,Jasper,"{""28061"": 98.69, ""28129"": 1.31}",Jasper|Smith,28061|28129,False,False,America/Chicago
39482,31.37271,-89.57966,Sumrall,MS,Mississippi,True,,11369.0,22.3,28073,Lamar,"{""28073"": 69.08, ""28065"": 15.76, ""28031"": 9.37, ""28091"": 5.79}",Lamar|Jefferson Davis|Covington|Marion,28073|28065|28031|28091,False,False,America/Chicago
39483,31.23515,-89.92674,Foxworth,MS,Mississippi,True,,5943.0,15.4,28091,Marion,"{""28091"": 96.69, ""28147"": 3.31}",Marion|Walthall,28091|28147,False,False,America/Chicago
39501,30.3857,-89.10309,Gulfport,MS,Mississippi,True,,23807.0,640.1,28047,Harrison,"{""28047"": 100}",Harrison,28047,False,False,America/Chicago
39503,30.47432,-89.14752,Gulfport,MS,Mississippi,True,,56418.0,190.6,28047,Harrison,"{""28047"": 100}",Harrison,28047,False,False,America/Chicago
39507,30.39945,-89.03628,Gulfport,MS,Mississippi,True,,17004.0,798.7,28047,Harrison,"{""28047"": 100}",Harrison,28047,False,False,America/Chicago
39520,30.26885,-89.47132,Bay Saint Louis,MS,Mississippi,True,,19072.0,76.0,28045,Hancock,"{""28045"": 100}",Hancock,28045,False,False,America/Chicago
39525,30.38123,-89.37065,Diamondhead,MS,Mississippi,True,,8076.0,297.7,28045,Hancock,"{""28045"": 100}",Hancock,28045,False,False,America/Chicago
39529,30.37734,-89.60211,Stennis Space Center,MS,Mississippi,True,,,,28045,Hancock,"{""28045"": 100}",Hancock,28045,False,False,America/Chicago
39530,30.40344,-88.89165,Biloxi,MS,Mississippi,True,,7734.0,663.5,28047,Harrison,"{""28047"": 100}",Harrison,28047,False,False,America/Chicago
39531,30.40459,-88.96735,Biloxi,MS,Mississippi,True,,16892.0,982.3,28047,Harrison,"{""28047"": 100}",Harrison,28047,False,False,America/Chicago
39532,30.50155,-88.97454,Biloxi,MS,Mississippi,True,,37837.0,177.7,28047,Harrison,"{""28047"": 89.89, ""28059"": 10.11}",Harrison|Jackson,28047|28059,False,False,America/Chicago
39534,30.40856,-88.92122,Biloxi,MS,Mississippi,True,,2618.0,577.1,28047,Harrison,"{""28047"": 100}",Harrison,28047,False,False,America/Chicago
39540,30.47108,-88.90088,Diberville,MS,Mississippi,True,,8805.0,298.6,28047,Harrison,"{""28047"": 100}",Harrison,28047,False,False,America/Chicago
39553,30.41625,-88.64848,Gautier,MS,Mississippi,True,,17437.0,238.2,28059,Jackson,"{""28059"": 100}",Jackson,28059,False,False,America/Chicago
39556,30.44457,-89.42747,Kiln,MS,Mississippi,True,,7703.0,29.0,28045,Hancock,"{""28045"": 100}",Hancock,28045,False,False,America/Chicago
39560,30.37356,-89.17356,Long Beach,MS,Mississippi,True,,17276.0,329.2,28047,Harrison,"{""28047"": 100}",Harrison,28047,False,False,America/Chicago
39561,30.70633,-89.16049,McHenry,MS,Mississippi,True,,1486.0,18.3,28131,Stone,"{""28131"": 100}",Stone,28131,False,False,America/Chicago
39562,30.54573,-88.49039,Moss Point,MS,Mississippi,True,,17447.0,33.4,28059,Jackson,"{""28059"": 100}",Jackson,28059,False,False,America/Chicago
39563,30.42449,-88.52601,Moss Point,MS,Mississippi,True,,13396.0,260.2,28059,Jackson,"{""28059"": 100}",Jackson,28059,False,False,America/Chicago
39564,30.40518,-88.75471,Ocean Springs,MS,Mississippi,True,,40946.0,296.7,28059,Jackson,"{""28059"": 100}",Jackson,28059,False,False,America/Chicago
39565,30.5759,-88.75207,Vancleave,MS,Mississippi,True,,20164.0,28.4,28059,Jackson,"{""28059"": 96.24, ""28047"": 3.76}",Jackson|Harrison,28059|28047,False,False,America/Chicago
39567,30.36192,-88.55254,Pascagoula,MS,Mississippi,True,,11095.0,668.9,28059,Jackson,"{""28059"": 100}",Jackson,28059,False,False,America/Chicago
39571,30.41662,-89.28125,Pass Christian,MS,Mississippi,True,,13709.0,61.5,28047,Harrison,"{""28047"": 95.72, ""28045"": 4.28}",Harrison|Hancock,28047|28045,False,False,America/Chicago
39572,30.25089,-89.60127,Pearlington,MS,Mississippi,True,,973.0,34.9,28045,Hancock,"{""28045"": 100}",Hancock,28045,False,False,America/Chicago
39573,30.72692,-89.08271,Perkinston,MS,Mississippi,True,,8476.0,8.0,28131,Stone,"{""28131"": 58.82, ""28039"": 16.09, ""28045"": 11.58, ""28059"": 8.15, ""28109"": 2.82, ""28047"": 2.54}",Stone|George|Hancock|Jackson|Pearl River|Harrison,28131|28039|28045|28059|28109|28047,False,False,America/Chicago
39574,30.60912,-89.10489,Saucier,MS,Mississippi,True,,14361.0,26.0,28047,Harrison,"{""28047"": 98.5, ""28131"": 1.5}",Harrison|Stone,28047|28131,False,False,America/Chicago
39576,30.28699,-89.38511,Waveland,MS,Mississippi,True,,5705.0,337.8,28045,Hancock,"{""28045"": 100}",Hancock,28045,False,False,America/Chicago
39577,30.90213,-89.07971,Wiggins,MS,Mississippi,True,,10737.0,16.4,28131,Stone,"{""28131"": 54.81, ""28111"": 28.49, ""28035"": 16.7}",Stone|Perry|Forrest,28131|28111|28035,False,False,America/Chicago
39581,30.35048,-88.49324,Pascagoula,MS,Mississippi,True,,10639.0,293.3,28059,Jackson,"{""28059"": 100}",Jackson,28059,False,False,America/Chicago
39595,30.33448,-88.57587,Pascagoula,MS,Mississippi,True,,,,28059,Jackson,"{""28059"": 100}",Jackson,28059,False,False,America/Chicago
39601,31.56548,-90.47762,Brookhaven,MS,Mississippi,True,,23635.0,34.5,28085,Lincoln,"{""28085"": 90.55, ""28037"": 9.45}",Lincoln|Franklin,28085|28037,False,False,America/Chicago
39629,31.43729,-90.45737,Bogue Chitto,MS,Mississippi,True,,6736.0,16.9,28085,Lincoln,"{""28085"": 100}",Lincoln,28085,False,False,America/Chicago
39630,31.45939,-90.84544,Bude,MS,Mississippi,True,,1101.0,130.1,28037,Franklin,"{""28037"": 100}",Franklin,28037,False,False,America/Chicago
39631,31.07321,-91.09581,Centreville,MS,Mississippi,True,,3442.0,8.4,28157,Wilkinson,"{""28157"": 69.63, ""28005"": 30.37}",Wilkinson|Amite,28157|28005,False,False,America/Chicago
39633,31.287,-91.16663,Crosby,MS,Mississippi,True,,1149.0,4.0,28157,Wilkinson,"{""28157"": 90.18, ""28005"": 9.82}",Wilkinson|Amite,28157|28005,False,False,America/Chicago
39635,31.18432,-90.44859,Fernwood,MS,Mississippi,True,,215.0,571.8,28113,Pike,"{""28113"": 100}",Pike,28113,False,False,America/Chicago
39638,31.22378,-90.99747,Gloster,MS,Mississippi,True,,3451.0,7.2,28005,Amite,"{""28005"": 83.27, ""28157"": 16.73}",Amite|Wilkinson,28005|28157,False,False,America/Chicago
39641,31.35717,-90.17042,Jayess,MS,Mississippi,True,,4566.0,12.5,28077,Lawrence,"{""28077"": 50.89, ""28147"": 40.55, ""28113"": 6.26, ""28085"": 2.3}",Lawrence|Walthall|Pike|Lincoln,28077|28147|28113|28085,False,False,America/Chicago
39643,31.24575,-90.01368,Kokomo,MS,Mississippi,True,,1057.0,10.3,28091,Marion,"{""28091"": 73.77, ""28147"": 26.23}",Marion|Walthall,28091|28147,False,False,America/Chicago
39645,31.1485,-90.79399,Liberty,MS,Mississippi,True,,4412.0,5.4,28005,Amite,"{""28005"": 100}",Amite,28005,False,False,America/Chicago
39647,31.51498,-90.7143,McCall Creek,MS,Mississippi,True,,811.0,4.3,28037,Franklin,"{""28037"": 95.44, ""28085"": 4.56}",Franklin|Lincoln,28037|28085,False,False,America/Chicago
39648,31.18611,-90.38804,Mccomb,MS,Mississippi,True,,20349.0,72.8,28113,Pike,"{""28113"": 100}",Pike,28113,False,False,America/Chicago
39652,31.11034,-90.46701,Magnolia,MS,Mississippi,True,,8569.0,21.1,28113,Pike,"{""28113"": 72.59, ""28005"": 27.41}",Pike|Amite,28113|28005,False,False,America/Chicago
39653,31.46055,-90.86727,Meadville,MS,Mississippi,True,,2304.0,3.9,28037,Franklin,"{""28037"": 94.21, ""28063"": 3.9, ""28005"": 1.89}",Franklin|Jefferson|Amite,28037|28063|28005,False,False,America/Chicago
39654,31.53716,-90.13831,Monticello,MS,Mississippi,True,,5100.0,13.0,28077,Lawrence,"{""28077"": 96.81, ""28085"": 3.19}",Lawrence|Lincoln,28077|28085,False,False,America/Chicago
39656,31.45055,-89.92843,Oak Vale,MS,Mississippi,True,,671.0,4.7,28065,Jefferson Davis,"{""28065"": 76.17, ""28077"": 23.83}",Jefferson Davis|Lawrence,28065|28077,False,False,America/Chicago
39657,31.02727,-90.50334,Osyka,MS,Mississippi,True,,1601.0,6.4,28113,Pike,"{""28113"": 57.61, ""28005"": 42.12, ""28147"": 0.27}",Pike|Amite|Walthall,28113|28005|28147,False,False,America/Chicago
39661,31.48704,-91.07952,Roxie,MS,Mississippi,True,,2713.0,4.2,28037,Franklin,"{""28037"": 83.25, ""28001"": 16.63, ""28063"": 0.12}",Franklin|Adams|Jefferson,28037|28001|28063,False,False,America/Chicago
39662,31.38778,-90.29838,Ruth,MS,Mississippi,True,,1237.0,9.9,28085,Lincoln,"{""28085"": 65.92, ""28113"": 26.84, ""28077"": 7.24}",Lincoln|Pike|Lawrence,28085|28113|28077,False,False,America/Chicago
39663,31.58615,-90.02955,Silver Creek,MS,Mississippi,True,,2424.0,7.4,28077,Lawrence,"{""28077"": 93.25, ""28065"": 6.75}",Lawrence|Jefferson Davis,28077|28065,False,False,America/Chicago
39664,31.32894,-90.68252,Smithdale,MS,Mississippi,True,,1909.0,6.5,28005,Amite,"{""28005"": 58.3, ""28037"": 31.78, ""28085"": 9.92}",Amite|Franklin|Lincoln,28005|28037|28085,False,False,America/Chicago
39665,31.64125,-90.21404,Sontag,MS,Mississippi,True,,1985.0,12.8,28077,Lawrence,"{""28077"": 75.09, ""28085"": 24.91}",Lawrence|Lincoln,28077|28085,False,False,America/Chicago
39666,31.2853,-90.48857,Summit,MS,Mississippi,True,,9976.0,23.6,28113,Pike,"{""28113"": 59.5, ""28005"": 30.12, ""28085"": 10.38}",Pike|Amite|Lincoln,28113|28005|28085,False,False,America/Chicago
39667,31.1298,-90.12656,Tylertown,MS,Mississippi,True,,11543.0,14.1,28147,Walthall,"{""28147"": 93.72, ""28113"": 4.13, ""28091"": 2.15}",Walthall|Pike|Marion,28147|28113|28091,False,False,America/Chicago
39668,31.69126,-90.79126,Union Church,MS,Mississippi,True,,1121.0,4.0,28063,Jefferson,"{""28063"": 81.43, ""28085"": 15.9, ""28037"": 2.11, ""28029"": 0.55}",Jefferson|Lincoln|Franklin|Copiah,28063|28085|28037|28029,False,False,America/Chicago
39669,31.14966,-91.39547,Woodville,MS,Mississippi,True,,5468.0,4.8,28157,Wilkinson,"{""28157"": 100}",Wilkinson,28157,False,False,America/Chicago
39701,33.41091,-88.50807,Columbus,MS,Mississippi,True,,12798.0,25.9,28087,Lowndes,"{""28087"": 100}",Lowndes,28087,False,False,America/Chicago
39702,33.43876,-88.34493,Columbus,MS,Mississippi,True,,23967.0,92.6,28087,Lowndes,"{""28087"": 100}",Lowndes,28087,False,False,America/Chicago
39705,33.58669,-88.43705,Columbus,MS,Mississippi,True,,12254.0,71.6,28087,Lowndes,"{""28087"": 100}",Lowndes,28087,False,False,America/Chicago
39730,33.83926,-88.56267,Aberdeen,MS,Mississippi,True,,12419.0,19.2,28095,Monroe,"{""28095"": 100}",Monroe,28095,False,False,America/Chicago
39735,33.34511,-89.18998,Ackerman,MS,Mississippi,True,,3794.0,9.9,28019,Choctaw,"{""28019"": 100}",Choctaw,28019,False,False,America/Chicago
39736,33.4169,-88.64178,Artesia,MS,Mississippi,True,,272.0,167.0,28087,Lowndes,"{""28087"": 100}",Lowndes,28087,False,False,America/Chicago
39737,33.65211,-89.33573,Bellefontaine,MS,Mississippi,True,,166.0,3.7,28155,Webster,"{""28155"": 100}",Webster,28155,False,False,America/Chicago
39739,33.23843,-88.57855,Brooksville,MS,Mississippi,True,,2513.0,5.5,28103,Noxubee,"{""28103"": 100}",Noxubee,28103,False,False,America/Chicago
39740,33.71668,-88.31287,Caledonia,MS,Mississippi,True,,5951.0,28.9,28087,Lowndes,"{""28087"": 68.24, ""28095"": 31.76}",Lowndes|Monroe,28087|28095,False,False,America/Chicago
39741,33.65254,-88.85536,Cedarbluff,MS,Mississippi,True,,1789.0,9.7,28025,Clay,"{""28025"": 100}",Clay,28025,False,False,America/Chicago
39743,33.31913,-88.61308,Crawford,MS,Mississippi,True,,1893.0,10.5,28087,Lowndes,"{""28087"": 71.69, ""28105"": 22.65, ""28103"": 5.66}",Lowndes|Oktibbeha|Noxubee,28087|28105|28103,False,False,America/Chicago
39744,33.58344,-89.30374,Eupora,MS,Mississippi,True,,5503.0,8.7,28155,Webster,"{""28155"": 78.93, ""28019"": 15.94, ""28013"": 5.13}",Webster|Choctaw|Calhoun,28155|28019|28013,False,False,America/Chicago
39745,33.29984,-89.46277,French Camp,MS,Mississippi,True,,686.0,4.3,28007,Attala,"{""28007"": 37.14, ""28019"": 35.15, ""28097"": 27.7}",Attala|Choctaw|Montgomery,28007|28019|28097,False,False,America/Chicago
39746,33.74697,-88.41544,Hamilton,MS,Mississippi,True,,2353.0,10.3,28095,Monroe,"{""28095"": 100}",Monroe,28095,False,False,America/Chicago
39747,33.42283,-89.5538,Kilmichael,MS,Mississippi,True,,1426.0,4.3,28097,Montgomery,"{""28097"": 100}",Montgomery,28097,False,False,America/Chicago
39750,33.56331,-89.05751,Maben,MS,Mississippi,True,,2525.0,10.7,28155,Webster,"{""28155"": 46.07, ""28105"": 40.33, ""28025"": 10.82, ""28019"": 2.78}",Webster|Oktibbeha|Clay|Choctaw,28155|28105|28025|28019,False,False,America/Chicago
39751,33.70444,-89.10004,Mantee,MS,Mississippi,True,,1425.0,7.2,28155,Webster,"{""28155"": 67.13, ""28025"": 20.75, ""28017"": 12.12}",Webster|Clay|Chickasaw,28155|28025|28017,False,False,America/Chicago
39752,33.5198,-89.15427,Mathiston,MS,Mississippi,True,,2568.0,13.5,28019,Choctaw,"{""28019"": 66.57, ""28155"": 33.43}",Choctaw|Webster,28019|28155,False,False,America/Chicago
39753,33.48441,-88.63052,Mayhew,MS,Mississippi,True,,,,28087,Lowndes,"{""28087"": 100}",Lowndes,28087,False,False,America/Chicago
39755,33.61275,-88.95138,Pheba,MS,Mississippi,True,,755.0,4.1,28025,Clay,"{""28025"": 80.18, ""28105"": 19.82}",Clay|Oktibbeha,28025|28105,False,False,America/Chicago
39756,33.78356,-88.74266,Prairie,MS,Mississippi,True,,1997.0,11.0,28025,Clay,"{""28025"": 46.13, ""28095"": 39.77, ""28017"": 14.1}",Clay|Monroe|Chickasaw,28025|28095|28017,False,False,America/Chicago
39759,33.43491,-88.82631,Starkville,MS,Mississippi,True,,43941.0,52.4,28105,Oktibbeha,"{""28105"": 97.36, ""28087"": 2.64}",Oktibbeha|Lowndes,28105|28087,False,False,America/Chicago
39762,33.44648,-88.79576,Mississippi State,MS,Mississippi,True,,2730.0,858.8,28105,Oktibbeha,"{""28105"": 100}",Oktibbeha,28105,False,False,America/Chicago
39766,33.5876,-88.31598,Steens,MS,Mississippi,True,,2692.0,29.6,28087,Lowndes,"{""28087"": 100}",Lowndes,28087,False,False,America/Chicago
39767,33.47263,-89.45001,Stewart,MS,Mississippi,True,,942.0,4.3,28155,Webster,"{""28155"": 53.62, ""28019"": 26.46, ""28097"": 19.92}",Webster|Choctaw|Montgomery,28155|28019|28097,False,False,America/Chicago
39769,33.31867,-89.01136,Sturgis,MS,Mississippi,True,,1252.0,3.7,28105,Oktibbeha,"{""28105"": 57.87, ""28159"": 36.75, ""28019"": 5.38}",Oktibbeha|Winston|Choctaw,28105|28159|28019,False,False,America/Chicago
39771,33.60694,-89.27873,Walthall,MS,Mississippi,True,,134.0,53.1,28155,Webster,"{""28155"": 100}",Webster,28155,False,False,America/Chicago
39772,33.30509,-89.29893,Weir,MS,Mississippi,True,,1700.0,8.1,28019,Choctaw,"{""28019"": 92.31, ""28007"": 5.06, ""28159"": 2.63}",Choctaw|Attala|Winston,28019|28007|28159,False,False,America/Chicago
39773,33.63892,-88.67558,West Point,MS,Mississippi,True,,15329.0,26.9,28025,Clay,"{""28025"": 94.87, ""28095"": 5.13}",Clay|Monroe,28025|28095,False,False,America/Chicago
39776,33.78517,-89.03239,Woodland,MS,Mississippi,True,,1278.0,5.8,28017,Chickasaw,"{""28017"": 81.36, ""28025"": 18.64}",Chickasaw|Clay,28017|28025,False,False,America/Chicago
